{
    "type": "FeatureCollection",
    "features": [
      {
        "type": "Feature",
        "properties": {
          "Name": "SADE Beş Denizler Mutfağı",
          "Rating": 5,
          "Notes": "Very tasty.",
          "Last Visit": "09.02.23",
          "Blog Post": " "
        },
        "geometry": {
          "coordinates": [
            28.992339895182198,
            41.051980569664636
          ],
          "type": "Point"
        }
      },
      {
        "type": "Feature",
        "properties": {
          "Name": "I Love Fish",
          "Rating": 2,
          "Last Visit": " ",
          "Notes": " ",
          "Blog Post": " "
        },
        "geometry": {
          "coordinates": [
            29.004198969592352,
            41.04369301747343
          ],
          "type": "Point"
        }
      },
      {
        "type": "Feature",
        "properties": {
          "Name": "Kutup Moda",
          "Rating": 5,
          "Notes": " ",
          "Last Visit": " ",
          "Blog Post": " "
        },
        "geometry": {
          "coordinates": [
            29.024408488692046,
            40.98095664274726
          ],
          "type": "Point"
        }
      },
      {
        "type": "Feature",
        "properties": {
          "Name": "IDEA Kadıköy",
          "Rating": 4,
          "Notes": " ",
          "Last Visit": " ",
          "Blog Post": " "
        },
        "geometry": {
          "coordinates": [
            29.027840812118967,
            40.9803128731439
          ],
          "type": "Point"
        }
      },
      {
        "type": "Feature",
        "properties": {
          "Name": "Barlar Sokağı",
          "Rating": 4,
          "Notes": " ",
          "Last Visit": " ",
          "Blog Post": " "
        },
        "geometry": {
          "coordinates": [
            [
              29.02621371973055,
              40.98578293252456
            ],
            [
              29.026522272292908,
              40.986356785472
            ],
            [
              29.026759276435996,
              40.98684286876747
            ],
            [
              29.027067828999407,
              40.987450467848475
            ]
          ],
          "type": "LineString"
        }
      },
      {
        "type": "Feature",
        "properties": {
          "Name": "Kimyon",
          "Rating": 5,
          "Notes": " ",
          "Last Visit": " ",
          "Blog Post": " "
        },
        "geometry": {
          "coordinates": [
            29.026760645169958,
            40.98673366244586
          ],
          "type": "Point"
        }
      },
      {
        "type": "Feature",
        "properties": {
          "Name": "Aylak Kadıköy",
          "Rating": 4,
          "Notes": " ",
          "Last Visit": " ",
          "Blog Post": " "
        },
        "geometry": {
          "coordinates": [
            29.025719266290025,
            40.98948150927896
          ],
          "type": "Point"
        }
      },
      {
        "type": "Feature",
        "properties": {
          "Name": "Grass",
          "Rating": 3,
          "Notes": " ",
          "Last Visit": " ",
          "Blog Post": " "
        },
        "geometry": {
          "coordinates": [
            29.02274937289465,
            40.98593299625895
          ],
          "type": "Point"
        }
      },
      {
        "type": "Feature",
        "properties": {
          "Name": "Biber Burger",
          "Rating": 5,
          "Notes": " ",
          "Last Visit": " ",
          "Blog Post": " "
        },
        "geometry": {
          "coordinates": [
            29.023535545627624,
            40.98315846229406
          ],
          "type": "Point"
        }
      },
      {
        "type": "Feature",
        "properties": {
          "Name": "Brekkie",
          "Rating": 4,
          "Notes": " ",
          "Last Visit": " ",
          "Blog Post": " "
        },
        "geometry": {
          "coordinates": [
            29.03309765794961,
            40.98624704008634
          ],
          "type": "Point"
        }
      },
      {
        "type": "Feature",
        "properties": {
          "Name": "Haçapuri",
          "Rating": 5,
          "Notes": " ",
          "Last Visit": "25.10.22",
          "Blog Post": " "
        },
        "geometry": {
          "coordinates": [
            29.038165014968087,
            40.99379831755502
          ],
          "type": "Point"
        }
      },
      {
        "type": "Feature",
        "properties": {
          "Name": "Çiya Sofrası",
          "Rating": 3,
          "Notes": " ",
          "Last Visit": " ",
          "Blog Post": " "
        },
        "geometry": {
          "coordinates": [
            29.024193412139,
            40.98923319963137
          ],
          "type": "Point"
        }
      },
      {
        "type": "Feature",
        "properties": {
          "Name": "Küff",
          "Rating": 4,
          "Notes": " ",
          "Last Visit": " ",
          "Blog Post": " "
        },
        "geometry": {
          "coordinates": [
            29.029364907445398,
            40.99571102300931
          ],
          "type": "Point"
        }
      },
      {
        "type": "Feature",
        "properties": {
          "Name": "Coffee Manifesto",
          "Rating": 3,
          "Last Visit": "08.10.22",
          "Notes": " ",
          "Blog Post": " "
        },
        "geometry": {
          "coordinates": [
            29.028330770353108,
            40.99560694242177
          ],
          "type": "Point"
        }
      },
      {
        "type": "Feature",
        "properties": {
          "Name": "Cafe Stellar",
          "Rating": 3,
          "Notes": " ",
          "Last Visit": " ",
          "Blog Post": " "
        },
        "geometry": {
          "coordinates": [
            29.029075955274465,
            40.99530329319671
          ],
          "type": "Point"
        }
      },
      {
        "type": "Feature",
        "properties": {
          "Name": "Kaen Sushi",
          "Notes": " ",
          "Rating": 4,
          "Last Visit": " ",
          "Blog Post": " "
        },
        "geometry": {
          "coordinates": [
            29.038250862878698,
            41.007660255534404
          ],
          "type": "Point"
        }
      },
      {
        "type": "Feature",
        "properties": {
          "Name": "Starbucks Reserve",
          "Rating": 3,
          "Notes": " ",
          "Last Visit": " ",
          "Blog Post": " "
        },
        "geometry": {
          "coordinates": [
            29.040347165914227,
            41.00947816555211
          ],
          "type": "Point"
        }
      },
      {
        "type": "Feature",
        "properties": {
          "Name": "Acıbadem Balıkçısı",
          "Rating": 4,
          "Notes": " ",
          "Last Visit": " ",
          "Blog Post": " "
        },
        "geometry": {
          "coordinates": [
            29.038896099473448,
            40.99935625018372
          ],
          "type": "Point"
        }
      },
      {
        "type": "Feature",
        "properties": {
          "Name": "Konoha",
          "Rating": 3,
          "Last Visit": "01.01.23",
          "Notes": " ",
          "Blog Post": " "
        },
        "geometry": {
          "coordinates": [
            29.040768722668446,
            41.00157300897408
          ],
          "type": "Point"
        }
      },
      {
        "type": "Feature",
        "properties": {
          "Name": "Aum Cafe",
          "Rating": 3,
          "Notes": " ",
          "Last Visit": " ",
          "Blog Post": " "
        },
        "geometry": {
          "coordinates": [
            29.046692092214045,
            41.00591463030548
          ],
          "type": "Point"
        }
      },
      {
        "type": "Feature",
        "properties": {
          "Name": "Hangry21",
          "Rating": 3,
          "Last Visit": "11.02.23",
          "Notes": " ",
          "Blog Post": " "
        },
        "geometry": {
          "coordinates": [
            29.048266249737708,
            41.00726728010085
          ],
          "type": "Point"
        }
      },
      {
        "type": "Feature",
        "properties": {
          "Name": "Caffe Nero",
          "Rating": 2,
          "Notes": " ",
          "Last Visit": " ",
          "Blog Post": " "
        },
        "geometry": {
          "coordinates": [
            29.06579684881882,
            40.96389890428222
          ],
          "type": "Point"
        }
      },
      {
        "type": "Feature",
        "properties": {
          "Name": "Burrito Shop",
          "Rating": 4,
          "Notes": " ",
          "Last Visit": " ",
          "Blog Post": " "
        },
        "geometry": {
          "coordinates": [
            29.12233136423174,
            40.95244087723606
          ],
          "type": "Point"
        }
      },
      {
        "type": "Feature",
        "properties": {
          "Name": "Hunger",
          "Rating": 2,
          "Notes": " ",
          "Last Visit": " ",
          "Blog Post": " "
        },
        "geometry": {
          "coordinates": [
            29.120934208220575,
            40.95217892959249
          ],
          "type": "Point"
        }
      },
      {
        "type": "Feature",
        "properties": {
          "Name": "Kronotrop",
          "Rating": 4,
          "Notes": " ",
          "Last Visit": " ",
          "Blog Post": " "
        },
        "geometry": {
          "coordinates": [
            29.122536559991147,
            40.95291582123349
          ],
          "type": "Point"
        }
      },
      {
        "type": "Feature",
        "properties": {
          "Name": "Yomumu",
          "Rating": 3,
          "Notes": " ",
          "Last Visit": " ",
          "Blog Post": " "
        },
        "geometry": {
          "coordinates": [
            29.121495944319093,
            40.95232892806078
          ],
          "type": "Point"
        }
      },
      {
        "type": "Feature",
        "properties": {
          "Name": "Elde Börek",
          "Rating": 4,
          "Notes": " ",
          "Last Visit": " ",
          "Blog Post": " "
        },
        "geometry": {
          "coordinates": [
            29.003135389879958,
            41.044191294706394
          ],
          "type": "Point"
        }
      },
      {
        "type": "Feature",
        "properties": {
          "Name": "Monster Tea Shop",
          "Rating": 3,
          "Notes": " ",
          "Last Visit": " ",
          "Blog Post": " "
        },
        "geometry": {
          "coordinates": [
            28.998048496686778,
            41.04328365932261
          ],
          "type": "Point"
        }
      },
      {
        "type": "Feature",
        "properties": {
          "Name": "İzmir İşi",
          "Rating": 5,
          "Notes": " ",
          "Last Visit": " ",
          "Blog Post": " "
        },
        "geometry": {
          "coordinates": [
            28.979467139339732,
            41.02510252945808
          ],
          "type": "Point"
        }
      },
      {
        "type": "Feature",
        "properties": {
          "Name": "Türk Alman Kitabevi",
          "Rating": 4,
          "Notes": " ",
          "Last Visit": "18.12.22",
          "Blog Post": " "
        },
        "geometry": {
          "coordinates": [
            28.97525629708653,
            41.02925635486122
          ],
          "type": "Point"
        }
      },
      {
        "type": "Feature",
        "properties": {
          "Name": "Bodel",
          "Rating": 5,
          "Last Visit": "18.12.22",
          "Notes": " ",
          "Blog Post": " "
        },
        "geometry": {
          "coordinates": [
            28.974218648394753,
            41.02942556843564
          ],
          "type": "Point"
        }
      },
      {
        "type": "Feature",
        "properties": {
          "Name": "Caffe Nero",
          "Rating": 3,
          "Notes": " ",
          "Last Visit": " ",
          "Blog Post": " "
        },
        "geometry": {
          "coordinates": [
            28.9748616087727,
            41.02904890210246
          ],
          "type": "Point"
        }
      },
      {
        "type": "Feature",
        "properties": {
          "Name": "Espressolab",
          "Rating": 4,
          "Notes": " ",
          "Last Visit": " ",
          "Blog Post": " "
        },
        "geometry": {
          "coordinates": [
            28.989575351724767,
            41.042182920181375
          ],
          "type": "Point"
        }
      },
      {
        "type": "Feature",
        "properties": {
          "Name": "McDonald's",
          "Rating": 4,
          "Notes": " ",
          "Last Visit": " ",
          "Blog Post": " "
        },
        "geometry": {
          "coordinates": [
            29.04401420439362,
            41.00323397885029
          ],
          "type": "Point"
        }
      },
      {
        "type": "Feature",
        "properties": {
          "Name": "Zürafa No:203",
          "Rating": 1,
          "Notes": " ",
          "Last Visit": "25.10.22",
          "Blog Post": " "
        },
        "geometry": {
          "coordinates": [
            29.05562343167321,
            40.973922671324544
          ],
          "type": "Point"
        }
      }
    ]
  }